{
  "data": [
    {
      "-id": "1",
      "image": "world-cta-conference.png",
      "title": "World CTA Conference",
      "date": "September 17, 2015",
      "place": "Ottawa, Canada",
      "lat": "45.420857",
      "lng": "-75.696353"
    },
    {
      "-id": "2",
      "image": "europe-market-2015.png",
      "title": "Europe Market 2015",
      "date": "September 24, 2015",
      "place": "London, UK",
      "lat": "51.508346",
      "lng": "-0.128378"
    },
    {
      "-id": "3",
      "image": "europe-devnet-conference.png",
      "title": "Europe DEVnet Conference",
      "date": "October 1-3, 2015",
      "place": "Paris, France",
      "lat": "48.856770",
      "lng": "2.352707"
    },
    {
      "-id": "4",
      "image": "global-tvs-2015.png",
      "title": "Global TVS 2015",
      "date": "October 13-15, 2015",
      "place": "Portland, USA",
      "lat": "45.522355",
      "lng": "-122.675365"
    },
    {
      "-id": "5",
      "image": "asia-trade-conf-2015.png",
      "title": "Asia Trade Conf 2015",
      "date": "October 17, 2015",
      "place": "Tokio, Japan",
      "lat": "35.692585",
      "lng": "139.764633"
    },
    {
      "-id": "6",
      "image": "aps-2015.png",
      "title": "APS 2015",
      "date": "October 26, 2015",
      "place": "Milan, Italy",
      "lat": "45.465262",
      "lng": "9.184942"
    }
  ]
}
